City_ID,City,Lat,Lng,Max Temp,Humidity,Cloudiness,Wind Speed,Country,Date
0,qaqortoq,60.7167,-46.0333,0.81,98,100,6.34,GL,1698735393
1,thompson,55.7435,-97.8558,-6.91,73,100,4.12,CA,1698735377
2,adamstown,-25.066,-130.1015,22.74,77,100,3.87,PN,1698735302
3,morondava,-20.2833,44.2833,27.52,61,5,4.04,MG,1698735844
4,san sebastian de la gomera,28.0916,-17.1133,24.2,88,75,4.12,ES,1698735845
5,bilibino,68.0546,166.4372,-17.63,81,14,1.87,RU,1698735381
6,malango,-2.9627,119.9001,30.32,44,83,2.78,ID,1698735434
7,bundaberg north,-24.8551,152.3425,24.56,70,0,3.13,AU,1698735845
8,utrik,11.2278,169.8474,28.05,78,100,7.84,MH,1698735417
9,tingi,-11.3,35.0333,25.51,45,30,4.38,TZ,1698735845
10,albany,42.6001,-73.9662,4.8,86,12,1.34,US,1698735369
11,praya,14.9215,-23.5087,25.3,78,0,3.6,CV,1698735845
12,happy valley-goose bay,53.3168,-60.3315,-4.83,74,20,4.63,CA,1698735375
13,rio grande,-32.035,-52.0986,18.86,94,16,6.3,BR,1698735846
14,kovalam,8.3667,76.9967,32.05,70,40,1.54,IN,1698735846
15,santa cruz,-17.8,-63.1667,25.7,78,75,2.57,BO,1698735846
16,port elizabeth,-33.918,25.5701,17.95,69,0,6.17,ZA,1698735370
17,chinhoyi,-17.3667,30.2,20.81,63,100,6.63,ZW,1698735703
18,fort bragg,35.139,-79.006,18.08,69,0,4.63,US,1698735410
19,labrador city,52.9463,-66.9114,-8.05,79,100,3.09,CA,1698735386
20,touros,-5.1989,-35.4608,25.18,73,100,5.34,BR,1698735390
21,port-aux-francais,-49.35,70.2167,4.08,88,99,17.31,TF,1698735368
22,ilulissat,69.2167,-51.1,4.01,45,34,9.77,GL,1698735370
23,aasiaat,68.7098,-52.8699,-3.29,72,85,7.54,GL,1698735390
24,lihue,21.9789,-159.3672,25.77,76,75,3.6,US,1698735205
25,anadyr,64.75,177.4833,0.28,100,40,6.0,RU,1698735389
26,nova sintra,14.8667,-24.7167,23.42,68,48,1.68,CV,1698735400
27,yellowknife,62.456,-114.3525,-4.77,99,40,3.6,CA,1698735375
28,sitka,57.0531,-135.33,7.94,87,100,1.54,US,1698735377
29,vikulovo,56.8167,70.6107,-6.47,84,14,3.22,RU,1698735847
30,puerto natales,-51.7236,-72.4875,-2.29,91,11,1.47,CL,1698735370
31,puerto san jose,13.9256,-90.8244,24.74,89,100,2.87,GT,1698735382
32,tsiombe,-25.3,45.4833,22.69,73,100,5.59,MG,1698735417
33,port-gentil,-0.7193,8.7815,26.98,89,75,3.6,GA,1698735848
34,isafjordur,66.0755,-23.124,1.44,73,39,1.69,IS,1698735378
35,waitangi,-43.9535,-176.5597,13.23,90,100,6.26,NZ,1698735370
36,benjamin hill,30.1667,-111.1,15.29,35,0,3.52,MX,1698735848
37,cambridge,43.3601,-80.3127,1.6,90,100,2.57,CA,1698735849
38,araripina,-7.5761,-40.4983,21.07,44,99,3.15,BR,1698735849
39,cabo san lucas,22.8909,-109.9124,25.98,82,45,2.27,MX,1698735254
40,port mathurin,-19.6833,63.4167,25.04,80,0,7.96,MU,1698735373
41,olonkinbyen,70.9221,-8.7187,2.08,72,100,4.05,SJ,1698735371
42,port lincoln,-34.7333,135.8667,14.67,56,0,6.62,AU,1698735401
43,ati,13.2154,18.3353,30.86,17,98,5.31,TD,1698735849
44,lorengau,-2.0226,147.2712,27.43,79,96,2.75,PG,1698735382
45,ambovombe,-25.1667,46.0833,21.02,84,100,6.12,MG,1698735849
46,edinburgh of the seven seas,-37.0676,-12.3116,14.32,94,96,10.54,SH,1698735377
47,copala,16.65,-98.9833,25.13,88,31,1.14,MX,1698735850
48,blackmans bay,-43.0167,147.3167,13.74,57,98,0.89,AU,1698735375
49,kudahuvadhoo,2.6708,72.8944,28.03,72,29,2.48,MV,1698735404
50,bredasdorp,-34.5322,20.0403,18.02,61,14,6.46,ZA,1698735384
51,abepura,-2.6333,140.5833,31.45,48,20,1.03,ID,1698735850
52,ertil',51.8406,40.8056,11.86,78,100,4.44,RU,1698735850
53,grytviken,-54.2811,-36.5092,1.93,87,10,2.75,GS,1698735373
54,subaykhan,34.8544,40.6083,27.41,29,37,2.17,SY,1698735851
55,lashkar gah,31.5938,64.3716,27.81,16,7,0.61,AF,1698735851
56,tazovsky,67.4667,78.7,-14.65,94,45,2.59,RU,1698735442
57,capitao poco,-1.7464,-47.0594,21.88,98,13,1.37,BR,1698735787
58,vadso,70.0744,29.7487,1.49,86,40,3.09,NO,1698735401
59,old town,50.087,14.4202,13.89,93,0,9.26,CZ,1698735852
60,aroma,15.8167,36.1333,30.27,52,6,3.52,SD,1698735852
61,minggang,32.4586,114.0486,28.32,30,9,5.75,CN,1698735852
62,fale old settlement,-9.3852,-171.2468,29.09,77,100,8.13,TK,1698735432
63,kittila,67.6647,24.8936,-6.92,86,100,2.57,FI,1698735420
64,alice springs,-23.7,133.8833,33.75,10,6,7.2,AU,1698735391
65,jamestown,42.097,-79.2353,4.77,75,100,0.0,US,1698735270
66,papatowai,-46.5619,169.4708,11.89,88,97,0.98,NZ,1698735374
67,macau,22.2006,113.5461,31.03,65,20,2.06,MO,1698735853
68,puerto baquerizo moreno,-0.9,-89.6,22.77,82,100,4.06,EC,1698735762
69,badger,64.8,-147.5333,-0.86,86,75,0.0,US,1698735396
70,kayangel,8.0823,134.7173,28.7,73,15,2.04,PW,1698735853
71,al ghayzah,16.2079,52.176,27.89,60,88,3.69,YE,1698735402
72,tiksi,71.6872,128.8694,-18.76,99,100,1.31,RU,1698735372
73,vilyuchinsk,52.9306,158.4028,4.96,74,10,2.68,RU,1698735418
74,cill airne,52.05,-9.5167,7.75,93,37,1.61,IE,1698735854
75,xining,36.6167,101.7667,14.58,20,0,0.89,CN,1698735854
76,vila franca do campo,37.7167,-25.4333,19.38,99,48,4.97,PT,1698735381
77,walvis bay,-22.9575,14.5053,17.43,71,0,0.71,NA,1698735394
78,longyearbyen,78.2186,15.6401,-1.09,69,75,5.66,SJ,1698735372
79,hithadhoo,-0.6,73.0833,27.02,80,29,4.2,MV,1698735403
80,montes claros,-16.735,-43.8617,24.67,63,100,3.14,BR,1698735848
81,iqaluit,63.7506,-68.5145,-11.15,78,100,11.83,CA,1698735391
82,hadibu,12.65,54.0333,27.57,69,100,4.16,YE,1698735383
83,coffs harbour,-30.3,153.1333,28.41,73,100,9.77,AU,1698735855
84,ushuaia,-54.8,-68.3,3.81,60,75,4.63,AR,1698735371
85,luganville,-15.5333,167.1667,25.36,88,84,5.74,VU,1698735855
86,nadi,-17.8,177.4167,28.0,74,40,4.12,FJ,1698735855
87,klyuchi,52.2667,79.1667,5.78,86,100,3.88,RU,1698735388
88,nossa senhora da gloria,-10.2183,-37.4203,19.0,95,100,2.32,BR,1698735855
89,pierre,44.3683,-100.351,-5.08,65,20,8.75,US,1698735856
90,bethel,41.3712,-73.414,8.3,76,0,2.06,US,1698735344
91,stanley,54.868,-1.6985,6.77,96,75,1.54,GB,1698735374
92,port moresby,-9.4431,147.1797,27.68,78,75,7.72,PG,1698735393
93,lincoln city,44.9582,-124.0179,11.5,61,78,6.26,US,1698735408
94,zarate,-34.0981,-59.0286,12.8,10,100,3.44,AR,1698735856
95,vielha,42.6846,0.7726,-2.19,85,3,0.74,ES,1698735856
96,mount gambier,-37.8333,140.7667,12.85,55,100,4.32,AU,1698735398
97,panama city beach,30.1766,-85.8055,18.34,88,40,5.14,US,1698735667
98,avarua,-21.2078,-159.775,23.03,73,20,6.69,CK,1698735377
99,mata-utu,-13.2816,-176.1745,28.62,78,13,7.34,WF,1698735372
100,whitehorse,60.7161,-135.0538,1.43,98,100,0.0,CA,1698735389
101,kolpny,52.2282,37.0368,11.58,80,100,2.57,RU,1698735857
102,cicero dantas,-10.6,-38.3833,17.62,97,100,2.02,BR,1698735718
103,arkhara,49.4212,130.0842,0.98,34,100,1.34,RU,1698735857
104,camarinas,43.1311,-9.1817,13.85,79,18,8.18,ES,1698735857
105,puerto ayora,-0.7393,-90.3518,23.64,94,100,1.34,EC,1698735371
106,ambon,-3.6954,128.1814,30.08,74,40,3.09,ID,1698735858
107,new norfolk,-42.7826,147.0587,14.4,58,100,4.19,AU,1698735385
108,atafu village,-8.5421,-172.5159,29.36,75,12,7.19,TK,1698735378
109,hirara,24.8,125.2833,25.92,73,75,8.75,JP,1698735443
110,xiaoweizhai,26.1903,107.5125,24.21,41,100,0.99,CN,1698735858
111,kattivakkam,13.2167,80.3167,31.71,73,100,6.4,IN,1698735410
112,paracuru,-3.41,-39.0306,24.5,72,95,5.92,BR,1698735416
113,udachny,66.4167,112.4,-19.51,96,100,3.43,RU,1698735409
114,okhotsk,59.3833,143.3,-0.11,97,100,5.8,RU,1698735858
115,ribeira grande,38.5167,-28.7,17.65,90,73,1.79,PT,1698735383
116,karratha,-20.7377,116.8463,32.37,33,60,8.68,AU,1698735383
117,nouadhibou,20.931,-17.0347,20.99,88,20,5.66,MR,1698735859
118,ukata,10.8312,5.8249,24.76,35,100,1.87,NG,1698735859
119,georgetown,5.4112,100.3354,32.96,70,20,4.63,MY,1698735364
120,carnarvon,-24.8667,113.6333,24.49,58,0,8.51,AU,1698735394
121,ostersund,63.1792,14.6357,-5.75,93,100,3.09,SE,1698735859
122,pisco,-13.7,-76.2167,18.03,88,7,4.12,PE,1698735280
123,prado,-17.3411,-39.2208,21.96,84,100,3.1,BR,1698735443
124,broken hill,-31.95,141.4333,21.97,23,35,4.55,AU,1698735131
125,caleta olivia,-46.4393,-67.5281,4.51,48,8,1.67,AR,1698735860
126,san patricio,28.017,-97.5169,10.47,63,100,6.15,US,1698735860
127,namibe,-15.1961,12.1522,21.12,63,4,2.79,AO,1698735399
128,vorgashor,67.5833,63.95,-10.0,91,99,4.97,RU,1698735395
129,wau,7.7029,27.9953,29.8,54,64,3.43,SS,1698735861
130,wailua homesteads,22.0669,-159.378,25.44,77,75,3.6,US,1698735393
131,bandiagara,14.3501,-3.6104,27.69,20,47,3.75,ML,1698735861
132,el alto,-4.2714,-81.2147,20.67,77,100,6.13,PE,1698735861
133,chernyshevskiy,63.0128,112.4714,-19.45,89,90,2.0,RU,1698735861
134,grand falls-windsor,48.9332,-55.6649,0.28,93,100,0.8,CA,1698735861
135,constantia,44.1833,28.65,14.38,83,14,3.41,RO,1698735414
136,ancud,-41.8697,-73.8203,4.26,94,19,3.09,CL,1698735388
137,diego de almagro,-26.3667,-70.05,14.54,42,0,0.23,CL,1698735862
138,ketchikan,55.3422,-131.6461,4.99,93,0,1.54,US,1698735408
139,invercargill,-46.4,168.35,13.34,77,13,3.13,NZ,1698735380
140,shahpur,16.7,76.8333,31.23,40,28,2.76,IN,1698735862
141,hawaiian paradise park,19.5933,-154.9731,23.91,94,100,3.09,US,1698735383
142,bardai,11.65,7.2333,24.21,26,99,4.23,NG,1698735862
143,saudarkrokur,65.7461,-19.6394,-1.2,73,88,3.46,IS,1698735715
144,silale,55.4906,22.1814,9.47,90,100,5.78,LT,1698735862
145,keflavik,64.0049,-22.5624,3.24,75,75,6.69,IS,1698735369
146,greymouth,-42.4667,171.2,11.63,80,100,2.2,NZ,1698735386
147,centerport,40.8854,-73.3762,10.25,77,100,3.6,US,1698735863
148,luderitz,-26.6481,15.1594,20.29,44,0,0.52,NA,1698735863
149,st. john's,47.5649,-52.7093,1.55,95,100,0.89,CA,1698735223
150,lamu,-2.2717,40.902,30.12,73,99,4.09,KE,1698735863
151,sadovoye,47.7764,44.5089,15.4,56,88,5.61,RU,1698735863
152,maturin,9.75,-63.1767,22.68,97,100,1.59,VE,1698735863
153,jericho,31.8667,35.45,29.79,50,4,2.99,PS,1698735864
154,howard springs,-12.497,131.047,33.26,53,35,4.79,AU,1698735419
155,chichiriviche,10.9333,-68.2772,26.76,83,100,0.82,VE,1698735864
156,muynoq,43.7683,59.0214,11.45,54,7,2.09,UZ,1698735864
157,bembibre,42.6177,-6.4155,8.37,99,86,0.94,ES,1698735864
158,la passe,45.5549,-0.8967,14.99,82,4,6.66,FR,1698735398
159,arraial do cabo,-22.9661,-42.0278,23.84,89,100,1.35,BR,1698735385
160,paramaribo,5.8667,-55.1667,26.06,89,20,3.57,SR,1698735865
161,ulan-ude,51.8261,107.6098,0.94,40,31,2.0,RU,1698735865
162,phalodi,27.1333,72.3667,33.23,21,37,3.93,IN,1698735865
163,trondheim,63.4305,10.3951,-4.95,82,5,2.86,NO,1698735672
164,sungai raya,0.7,108.9,28.25,73,99,0.59,ID,1698735415
165,mcalester,34.9334,-95.7697,-1.36,64,0,1.53,US,1698735642
166,yibin,28.7667,104.6238,24.09,62,75,1.53,CN,1698735865
167,bayville,40.9106,-73.5621,10.57,77,100,1.34,US,1698735866
168,paraiso,9.8383,-83.8656,19.12,97,100,0.66,CR,1698735866
169,tual,-5.6667,132.75,27.87,78,64,2.12,ID,1698735380
170,berezovyy,51.6667,135.7,0.85,39,100,1.05,RU,1698735866
171,komsomol'skiy,43.9783,46.6985,19.46,59,0,7.74,RU,1698735866
172,illizi,26.4833,8.4667,17.89,17,0,2.48,DZ,1698735752
173,podstrana,43.4833,16.5833,19.46,92,100,13.33,HR,1698735867
174,antsiranana,-12.2787,49.2917,31.42,51,40,5.14,MG,1698735867
175,sinjar,36.3209,41.8754,26.24,26,100,1.54,IQ,1698735867
176,sakaraha,-22.9,44.5333,30.4,41,6,2.44,MG,1698735867
177,gerash,27.6652,54.1371,26.08,25,73,1.61,IR,1698735867
178,west island,-12.1568,96.8225,27.99,74,40,7.2,CC,1698735377
179,kerikeri,-35.2268,173.9474,18.28,88,63,1.34,NZ,1698735410
180,xinpu,34.5997,119.1594,27.95,28,0,5.78,CN,1698735868
181,saipan,15.1355,145.701,30.39,79,40,5.66,MP,1698735395
182,vegueta,-11.0231,-77.6431,18.87,90,100,3.25,PE,1698735868
183,lauro de freitas,-12.8944,-38.3272,24.01,83,40,1.03,BR,1698735704
184,kenora,49.8167,-94.4337,-3.46,93,75,4.63,CA,1698735868
185,margaret river,-33.95,115.0667,18.62,57,0,6.4,AU,1698735386
186,coquimbo,-29.9533,-71.3436,12.85,87,20,2.57,CL,1698735400
187,mahina,-17.5065,-149.489,25.87,78,20,2.57,PF,1698735868
188,punta arenas,-53.15,-70.9167,4.06,60,75,4.63,CL,1698735391
189,adjuntas,18.1585,-66.8018,20.83,95,91,2.05,PR,1698735869
190,nabire,-3.3667,135.4833,26.61,89,100,2.76,ID,1698735869
191,prince george,53.9166,-122.753,0.34,79,0,1.03,CA,1698735627
192,qubadli,39.344,46.582,17.61,53,76,1.49,AZ,1698735869
193,remire-montjoly,4.9167,-52.2667,25.02,100,75,1.03,GF,1698735869
194,college,64.8569,-147.8028,-0.82,86,75,0.0,US,1698735322
195,la gi,10.6667,107.7833,29.56,71,100,5.24,VN,1698735870
196,petawawa,45.9001,-77.3328,-4.01,87,8,1.32,CA,1698735870
197,iskateley,67.6803,53.1512,-10.55,97,94,2.68,RU,1698735382
198,saint-philippe,-21.3585,55.7679,28.77,68,0,5.71,RE,1698735429
199,kelso,46.1468,-122.9084,5.13,90,0,0.0,US,1698735870
200,hamilton,39.1834,-84.5333,1.48,85,0,3.09,US,1698735390
201,smithers,54.7804,-127.1743,-6.82,93,0,1.03,CA,1698735395
202,cidade velha,14.9167,-23.6167,25.26,78,0,3.6,CV,1698735870
203,revda,56.801,59.9303,-1.6,81,100,2.13,RU,1698735871
204,gladstone,-23.85,151.25,26.96,47,0,5.66,AU,1698735624
205,nueva gerona,21.8833,-82.8,25.84,81,66,1.13,CU,1698735803
206,garachico,28.7781,-17.7646,21.06,73,0,2.06,ES,1698735871
207,novovarshavka,54.1721,74.6946,-2.13,93,97,4.43,RU,1698735871
208,dara,15.3484,-15.4799,25.98,70,87,4.22,SN,1698735871
209,buenos aires,-34.6132,-58.3772,14.85,68,100,3.09,AR,1698735840
210,praia da vitoria,38.7333,-27.0667,19.86,82,20,5.85,PT,1698735872
211,shiyan,32.6475,110.7781,25.98,42,79,0.72,CN,1698735872
212,ebon,4.582,168.6964,27.39,75,100,1.43,MH,1698735872
213,am timan,11.0297,20.2827,30.3,31,18,2.01,TD,1698735872
214,katsuura,35.1333,140.3,19.93,60,100,0.57,JP,1698735872
215,kerman,30.2832,57.0788,21.92,24,40,1.03,IR,1698735630
216,terrace,54.5163,-128.6035,-1.05,74,75,3.09,CA,1698735608
217,vypasne,45.8756,34.1773,17.14,56,20,3.09,UA,1698735873
218,taoudenni,22.6783,-3.9836,27.71,14,2,3.02,ML,1698735873
219,ambagarh chauki,20.7833,80.7167,28.74,46,0,3.89,IN,1698735873
220,port saint john's,-31.6229,29.5448,15.63,84,100,2.76,ZA,1698735423
221,polyarnyy,69.1989,33.4478,-5.03,92,100,4.63,RU,1698735873
222,olovyannaya,50.95,115.5667,1.29,45,40,4.19,RU,1698735873
223,ormara,25.2088,64.6357,28.39,46,0,1.31,PK,1698735873
224,poronaysk,49.2167,143.1167,7.48,55,100,2.56,RU,1698735874
225,'ain el hadjar,34.7585,0.1453,10.63,79,47,1.66,DZ,1698735874
226,qalat,32.1058,66.9083,22.41,18,1,2.49,AF,1698735874
227,kone,-21.0595,164.8658,22.46,63,30,2.6,NC,1698735373
228,enniskillen,54.3461,-7.6413,7.48,96,100,3.33,GB,1698735874
229,portland,45.5234,-122.6762,10.05,60,0,6.71,US,1698735433
230,sunzha,43.3211,45.0522,16.19,41,0,1.33,RU,1698735875
231,el bauga,18.262,33.9081,31.58,35,20,6.11,SD,1698735875
232,nadym,65.5333,72.5167,-10.89,86,100,4.13,RU,1698735419
233,kodiak,57.79,-152.4072,7.73,93,100,3.09,US,1698735382
234,pindiga,9.9833,10.9333,23.61,24,100,1.0,NG,1698735875
235,codrington,-38.2667,141.9667,13.08,54,55,6.63,AU,1698735398
236,coihueco,-36.6167,-71.8333,3.41,93,0,3.09,CL,1698735875
237,mhamid,29.82,-5.72,22.04,29,100,0.96,MA,1698735430
238,greenwood,34.1668,-82.1165,16.57,50,0,2.57,US,1698735876
239,gizo,-8.103,156.8419,27.71,78,99,1.76,SB,1698735876
240,port alfred,-33.5906,26.891,17.32,79,0,3.13,ZA,1698735420
241,belmonte,-15.8631,-38.8828,22.59,78,100,3.29,BR,1698735142
242,san jose de jachal,-30.2406,-68.7469,11.22,34,3,0.18,AR,1698735876
243,lebu,-37.6167,-73.65,6.27,84,78,4.09,CL,1698735396
244,camacupa,-12.0167,17.4833,21.89,70,77,0.21,AO,1698735876
245,alta,69.9689,23.2717,1.59,83,75,3.6,NO,1698735876
246,tilcara,-23.5776,-65.3509,8.17,45,40,0.68,AR,1698735877
247,robertsport,6.7533,-11.3686,25.14,91,70,2.99,LR,1698735877
248,severo-yeniseyskiy,60.3725,93.0408,-12.46,79,42,1.34,RU,1698735397
249,schuyler,42.4167,-76.883,3.33,90,8,4.92,US,1698735877
250,kantunilkin,21.0917,-87.45,22.29,98,17,0.83,MX,1698735877
251,kloulklubed,7.0419,134.2556,31.28,74,6,1.7,PW,1698735878
252,newman,37.3138,-121.0208,11.27,29,10,1.27,US,1698735414
253,acarau,-2.8856,-40.12,24.79,78,11,5.76,BR,1698735432
254,port douglas,-16.4833,145.4667,24.59,60,100,3.9,AU,1698735878
255,ust-nera,64.5667,143.2,-14.93,99,100,2.14,RU,1698735387
256,el abiodh sidi cheikh,32.893,0.5484,17.71,52,100,2.65,DZ,1698735878
257,tolanaro,-25.0319,46.9987,22.04,100,75,5.14,MG,1698735410
258,petropavlovsk-kamchatsky,53.0452,158.6483,4.14,62,0,5.36,RU,1698735387
259,khandyga,62.6667,135.6,-9.29,96,100,1.65,RU,1698735370
260,ust'-uda,54.1742,103.0304,-1.65,37,20,1.91,RU,1698735879
261,east london,-33.0153,27.9116,18.4,66,6,6.7,ZA,1698735722
262,crane,31.3974,-102.3501,3.93,49,0,0.6,US,1698735879
263,czluchow,53.6672,17.3588,11.93,87,100,4.44,PL,1698735879
264,bikaner,28.0167,73.3,32.57,21,16,1.02,IN,1698735879
265,pangody,65.85,74.4859,-11.65,91,100,3.14,RU,1698735879
266,verkhov'ye,52.8119,37.2425,9.84,89,100,2.4,RU,1698735880
267,vilyuysk,63.7553,121.6247,-11.11,87,73,0.45,RU,1698735880
268,holualoa,19.6228,-155.9522,24.91,93,40,4.12,US,1698735376
269,lata,40.1629,-8.3327,11.15,92,100,1.73,PT,1698735432
270,trail,49.0998,-117.7022,1.65,75,32,1.23,CA,1698735880
271,thakhek,17.4103,104.8307,31.06,56,73,4.09,LA,1698735880
272,muisne,0.6,-80.0333,24.29,88,100,2.41,EC,1698735880
273,yuzhno-kurilsk,44.0306,145.8556,11.32,81,72,4.84,RU,1698735881
274,chadan,51.2833,91.5833,3.74,60,100,1.7,RU,1698735881
275,soni,-4.85,38.3667,18.84,91,100,1.6,TZ,1698735394
276,bamyan,34.75,67.25,7.94,38,14,5.41,AF,1698735881
277,noshiro,40.2039,140.0242,17.46,73,21,1.27,JP,1698735881
278,pospelikha,51.95,81.7667,6.54,91,100,3.43,RU,1698735881
279,halden,59.1226,11.3871,0.24,91,100,5.99,NO,1698735882
280,sumberpucung,-8.1586,112.4829,30.41,54,39,3.23,ID,1698735882
281,la ronge,55.1001,-105.2842,-10.86,79,75,2.57,CA,1698735882
282,midvagur,62.0511,-7.1939,3.46,75,75,2.57,FO,1698735414
283,phan rang-thap cham,11.5667,108.9833,31.52,59,98,6.45,VN,1698735882
284,flying fish cove,-10.4217,105.6791,27.82,78,75,5.66,CX,1698735379
285,majene,-3.5403,118.9707,31.81,57,7,4.4,ID,1698735882
286,afaahiti,-17.75,-149.2833,24.93,84,39,9.49,PF,1698735368
287,suva,-18.1416,178.4415,26.71,83,75,3.6,FJ,1698735882
288,razole,16.4833,81.8333,32.13,46,33,3.19,IN,1698735883
289,madinat ash shamal,26.1293,51.2009,29.92,52,33,0.98,QA,1698735883
290,dili,-8.5586,125.5736,28.71,70,12,2.82,TL,1698735883
291,kapuskasing,49.4169,-82.4331,-5.95,86,40,2.06,CA,1698735390
292,lamar,33.6668,-95.5836,3.69,77,0,2.06,US,1698735883
293,kailua-kona,19.6406,-155.9956,26.98,94,75,3.09,US,1698735883
294,dompu,-8.5356,118.4622,35.42,40,15,1.39,ID,1698735415
295,lospalos,-8.5186,127.0025,28.06,62,10,5.38,TL,1698735884
296,fort st. john,56.2499,-120.8529,-0.06,69,100,1.54,CA,1698735247
297,jequitinhonha,-16.4339,-41.0033,20.14,84,100,0.73,BR,1698735884
298,sao felix do xingu,-6.6447,-51.995,22.07,70,7,0.74,BR,1698735652
299,hilo,19.7297,-155.09,24.03,94,100,3.09,US,1698735385
300,moquegua,-17.1956,-70.9353,16.66,62,5,0.85,PE,1698735884
301,kralendijk,12.15,-68.2667,25.99,89,75,5.14,BQ,1698735409
302,lazaro cardenas,17.9583,-102.2,25.31,91,14,1.18,MX,1698735884
303,tarawa,1.419,172.984,29.05,79,75,1.03,KI,1698735884
304,sinabang,2.4803,96.3801,27.55,77,93,2.83,ID,1698735396
305,muscat,23.6139,58.5922,29.72,53,3,1.76,OM,1698735723
306,huaicheng,23.9051,112.1931,27.94,40,100,0.85,CN,1698735884
307,borkum,53.5809,6.6915,11.97,88,100,4.97,DE,1698735687
308,sola,-13.8833,167.55,28.37,84,75,0.0,VU,1698735885
309,nurota,40.5614,65.6886,14.07,63,92,4.54,UZ,1698735885
310,kaa-khem,51.6833,94.7333,3.47,68,100,0.99,RU,1698735387
311,hermanus,-34.4187,19.2345,16.87,65,100,7.61,ZA,1698735403
312,faya-largeau,17.9257,19.1043,27.22,18,2,11.49,TD,1698735747
313,weno,7.4515,151.8468,25.97,100,75,3.09,FM,1698735402
314,mahibadhoo,3.7833,72.9667,27.9,72,48,1.8,MV,1698735885
315,fort mcmurray,56.7268,-111.381,-1.27,80,100,0.51,CA,1698735609
316,duong dong,10.2167,103.9667,29.0,84,40,0.51,VN,1698735885
317,saldanha,-33.0117,17.9442,22.03,43,5,2.27,ZA,1698735885
318,huicheng,23.0385,116.2899,25.24,62,97,6.38,CN,1698735680
319,queenstown,-31.8976,26.8753,11.82,59,25,2.07,ZA,1698735886
320,obihiro,42.9172,143.2044,15.67,80,91,2.11,JP,1698735886
321,chibougamau,49.9168,-74.3659,-6.21,86,100,3.6,CA,1698735386
322,shibetsu,43.659,145.132,14.39,67,75,5.14,JP,1698735886
323,ribeira brava,32.65,-17.0667,22.06,89,100,2.25,PT,1698735420
324,sengkang,-4.1279,120.0297,35.98,32,31,4.66,ID,1698735886
325,sal'sk,46.4725,41.5428,16.04,61,100,2.24,RU,1698735886
326,bangassou,4.7413,22.8184,26.12,80,80,1.4,CF,1698735418
327,mareeba,-17.0,145.4333,29.13,47,100,3.32,AU,1698735886
328,tucuma,-0.1833,-50.05,24.65,87,6,1.79,BR,1698735817
329,wangkui,46.8333,126.5,3.27,81,100,4.09,CN,1698735886
330,aswan,24.0934,32.907,27.61,47,0,2.06,EG,1698735886
331,broome,42.2506,-75.833,3.68,94,100,2.57,US,1698735887
332,nar'yan-mar,67.6713,53.087,-10.5,97,92,2.68,RU,1698735177
333,corner brook,48.9667,-57.9484,0.09,97,100,0.99,CA,1698735414
334,el tigre,8.8875,-64.2454,23.16,90,73,3.44,VE,1698735887
335,hami,42.8,93.45,17.48,31,86,0.27,CN,1698735887
336,nagqu,31.5,92.0,3.52,34,12,2.72,CN,1698735887
337,qarazhal,48.0078,70.7903,4.74,65,100,8.84,KZ,1698735887
338,itoman,26.1247,127.6694,27.43,62,40,7.2,JP,1698735887
339,igrim,63.1906,64.4162,-7.04,76,100,2.9,RU,1698735441
340,kiselevsk,53.99,86.6621,-3.46,98,100,1.53,RU,1698735887
341,krasnoural'sk,58.3638,60.0407,-3.11,82,100,1.22,RU,1698735888
342,indi,17.1667,75.9667,31.27,31,39,3.12,IN,1698735888
343,mazamari,-11.3258,-74.5308,21.57,86,100,0.72,PE,1698735888
344,kimbe,-5.5502,150.1429,25.23,91,100,1.46,PG,1698735888
345,hakkari,37.5833,44.1667,13.63,53,97,2.03,TR,1698735720
346,zeribet el oued,34.6828,6.5111,25.31,24,87,2.1,DZ,1698735888
347,rabaul,-4.1967,152.1721,26.03,81,100,0.42,PG,1698735446
348,floro,61.5996,5.0328,5.54,54,0,3.6,NO,1698735446
349,tofol,5.3248,163.0078,28.67,74,100,3.88,FM,1698735888
350,kandira,41.0736,30.1746,22.86,77,25,1.15,TR,1698735889
351,papao,-17.75,-149.55,25.82,84,14,10.55,PF,1698735405
352,pandan,14.0453,124.1694,26.56,91,100,7.24,PH,1698735889
353,hacienda huancane,-15.8222,-70.8856,2.86,42,60,1.85,PE,1698735889
354,korenevo,55.6719,38.0078,8.64,100,75,2.0,RU,1698735889
355,kenai,60.5544,-151.2583,-1.97,93,0,0.0,US,1698735886
356,saint-pierre,-21.3393,55.4781,28.82,51,0,2.06,RE,1698735387
357,pyt-yakh,60.7499,72.8582,-11.3,73,95,2.63,RU,1698735889
358,sycamore,41.9889,-88.6868,-2.14,81,0,2.57,US,1698735828
359,luwuk,-0.9516,122.7875,30.76,60,40,2.72,ID,1698735385
360,kibuye,-2.0597,29.3482,23.07,62,100,1.9,RW,1698735889
361,outjo,-20.1167,16.15,24.38,15,0,1.35,NA,1698735889
362,ta`u,-14.2336,-169.5144,27.31,77,35,10.39,AS,1698735433
363,qadirpur ran,30.2924,71.6712,29.94,19,0,0.91,PK,1698735890
364,enewetak,11.3474,162.3373,28.95,78,100,9.75,MH,1698735370
365,mount pearl,47.5166,-52.7813,1.09,95,100,0.0,CA,1698735417
366,castillos,-34.1667,-53.8333,13.14,84,100,5.62,UY,1698735890
367,talnakh,69.4865,88.3972,-15.44,96,100,2.31,RU,1698735393
368,matay,28.419,30.7792,25.43,64,7,3.2,EG,1698735890
369,ryotsu-minato,38.0833,138.4333,16.97,73,3,1.9,JP,1698735890
370,pionerskiy,54.9508,20.2275,11.19,89,100,8.92,RU,1698735407
371,gadzhiyevo,69.2551,33.3362,-5.07,93,100,4.83,RU,1698735391
372,changling,44.2653,124.0005,9.72,31,0,7.8,CN,1698735890
373,bafra,41.5678,35.9069,24.57,59,21,2.28,TR,1698735890
374,netanya,32.3329,34.8599,28.01,56,12,6.72,IL,1698735648
375,karachi,24.9056,67.0822,34.9,18,0,4.63,PK,1698735677
376,botou,38.0667,116.5667,27.37,21,9,2.98,CN,1698735891
377,mount isa,-20.7333,139.5,37.87,18,75,4.12,AU,1698735385
378,puerto colombia,10.9878,-74.9547,25.05,76,100,1.02,CO,1698735371
379,muskegon,43.3,-86.1334,3.92,57,100,3.6,US,1698735891
380,yinchuan,38.4681,106.2731,23.06,12,0,4.68,CN,1698735891
381,klotze,52.6167,11.1667,12.23,84,100,9.43,DE,1698735891
382,manaure,11.7751,-72.4445,27.76,76,100,1.91,CO,1698735891
383,amboasary,-25.0333,46.3833,22.15,84,100,6.76,MG,1698735891
384,morgan city,29.6994,-91.2068,10.57,87,100,5.14,US,1698735647
385,shortandy,51.7006,70.9994,1.72,78,100,7.34,KZ,1698735446
386,doiwala,30.1833,78.1167,26.33,41,0,1.54,IN,1698735891
387,bubaque,11.2833,-15.8333,28.21,75,19,3.52,GW,1698735891
388,freetown,8.484,-13.2299,24.84,83,75,2.57,SL,1698735892
389,berdigestyakh,62.0989,126.6992,-14.92,98,57,0.81,RU,1698735405
390,ploudalmezeau,48.5333,-4.65,14.14,94,100,3.6,FR,1698735892
391,mossel bay,-34.1831,22.146,14.96,65,4,4.93,ZA,1698735892
392,aleg,17.0481,-13.9209,28.04,39,100,3.16,MR,1698735892
393,pachino,36.7186,15.0907,23.36,85,34,5.1,IT,1698735892
394,gotsucho,35.0,132.2167,18.14,60,0,2.34,JP,1698735892
395,aginskoye,51.1,114.53,1.62,38,43,2.88,RU,1698735892
396,nyurba,63.2842,118.3319,-12.58,95,100,1.91,RU,1698735892
397,rasskazovo,52.6714,41.9033,8.64,84,100,3.49,RU,1698735892
398,heihe,50.2441,127.4902,-0.68,42,100,2.3,CN,1698735893
399,manokwari,-0.8667,134.0833,26.23,83,100,1.24,ID,1698735446
400,pytalovo,57.0679,27.9138,6.69,95,100,3.62,RU,1698735893
401,narvik,68.4384,17.4272,-1.22,94,99,1.28,NO,1698735893
402,goondiwindi,-28.55,150.3167,34.27,11,0,10.22,AU,1698735893
403,rongelap,11.1635,166.8941,28.59,77,100,8.21,MH,1698735388
404,karlskrona,56.1616,15.5866,9.25,97,100,4.2,SE,1698735893
405,laguna,38.421,-121.4238,13.51,69,0,2.06,US,1698735408
406,taltal,-25.4,-70.4833,16.82,75,33,0.21,CL,1698735703
407,rakops,-21.0167,24.3333,21.62,67,52,7.27,BW,1698735893
408,kutulik,53.3508,102.7839,-2.0,48,99,1.74,RU,1698735893
409,souillac,-20.5167,57.5167,28.21,65,40,5.66,MU,1698735400
410,tommot,58.9564,126.2925,-11.45,93,100,0.57,RU,1698735894
411,gaiman,-43.2897,-65.4929,4.87,65,4,3.65,AR,1698735894
412,ola,59.5833,151.2833,-1.16,77,97,3.33,RU,1698735388
413,al jahra',29.3375,47.6581,29.23,24,50,0.46,KW,1698735894
414,parkes,-33.1333,148.1833,22.97,15,0,0.89,AU,1698735894
415,tyazhinskiy,56.116,88.524,-2.6,64,100,5.29,RU,1698735894
416,kumertau,52.7667,55.7833,1.58,93,100,7.04,RU,1698735894
417,lompoc,34.6391,-120.4579,13.1,72,0,3.6,US,1698735309
418,birao,10.2849,22.7882,29.67,41,48,1.83,CF,1698735749
419,hepo,23.4308,115.8299,28.23,51,57,1.26,CN,1698735894
420,uray,60.1247,64.7758,-6.18,69,100,2.68,RU,1698735759
421,urangan,-25.3,152.9,22.75,75,0,8.6,AU,1698735894
422,las palmas,28.4204,-14.0131,16.44,82,20,3.09,ES,1698735895
423,conceicao da barra,-18.5933,-39.7322,22.85,78,100,1.56,BR,1698735895
424,zhumysker,49.3333,49.4,11.37,62,92,7.42,KZ,1698735895
425,hasaki,35.7333,140.8333,22.38,53,100,2.66,JP,1698735394
426,borogontsy,62.6683,131.1683,-10.94,91,100,3.0,RU,1698735895
427,rio guayabal de yateras,20.3667,-75.0167,21.88,95,100,0.8,CU,1698735895
428,tahe,52.3333,124.7333,-2.18,30,100,0.62,CN,1698735895
429,tralee,52.2704,-9.7026,8.36,92,69,1.99,IE,1698735895
430,carolina beach,34.0352,-77.8936,19.04,96,97,2.49,US,1698735445
431,susuman,62.7833,148.1667,-13.34,94,14,0.45,RU,1698735389
432,las lajitas,-24.6833,-64.25,17.11,95,100,2.22,AR,1698735895
433,kingston,17.997,-76.7936,26.53,96,75,2.06,JM,1698735294
434,colonia,50.9333,6.95,11.18,83,75,4.12,DE,1698735265
435,sambava,-14.2667,50.1667,27.57,67,7,3.86,MG,1698735896
436,sogndal,61.2283,7.1003,-0.79,63,0,3.09,NO,1698735896
437,lakatoro,-16.0999,167.4164,25.17,85,80,6.2,VU,1698735896
438,nola,40.922,14.5329,22.02,76,24,3.23,IT,1698735425
439,thunder bay,48.4001,-89.3168,-4.01,68,40,1.54,CA,1698735327
440,hailey,43.5196,-114.3153,-2.08,74,0,3.09,US,1698735896
441,fortuna,40.5982,-124.1573,7.51,100,0,4.63,US,1698735896
442,yeniseysk,58.4497,92.1703,-5.59,49,6,4.47,RU,1698735896
443,camana,-16.6228,-72.7111,18.8,88,67,3.38,PE,1698735896
444,el porvenir,13.7617,-87.3458,21.63,96,100,1.64,HN,1698735896
445,puerto santa,-8.9906,-78.6456,18.45,91,94,2.35,PE,1698735896
446,puerto deseado,-47.7503,-65.8938,2.9,63,22,5.59,AR,1698735896
447,kill devil hills,36.0307,-75.676,17.77,76,100,8.75,US,1698735897
448,imam sahib,37.189,68.9364,27.85,19,100,7.12,AF,1698735897
449,aykhal,66.0,111.5,-21.8,99,99,3.45,RU,1698735225
450,"laikit, laikit ii (dimembe)",1.4792,124.9735,29.47,66,40,2.06,ID,1698735897
451,bethal,-26.4579,29.4655,7.53,92,100,3.43,ZA,1698735897
452,prince rupert,54.3161,-130.3201,5.83,86,0,3.6,CA,1698735628
453,howrah,22.5892,88.3103,31.0,55,40,2.57,IN,1698735897
454,dakhla,23.6848,-15.958,21.01,94,1,3.09,EH,1698735381
455,banda aceh,5.5577,95.3222,28.68,75,95,4.73,ID,1698735436
456,bengkulu,-3.8004,102.2655,26.59,83,99,3.76,ID,1698735432
457,saint-joseph,-21.3667,55.6167,28.21,67,0,3.4,RE,1698735426
458,trairi,-3.2778,-39.2689,23.83,81,33,3.28,BR,1698735634
459,tamanrasset,22.785,5.5228,16.95,25,0,1.03,DZ,1698735897
460,stadtroda,50.85,11.7333,11.83,93,97,7.06,DE,1698735898
461,machico,32.7,-16.7667,22.06,91,75,7.2,PT,1698735898
462,arbus,39.5272,8.5994,17.91,80,100,5.49,IT,1698735898
463,bentiu,9.2333,29.8333,29.58,54,98,2.39,SS,1698735898
464,campo mourao,-24.0456,-52.3831,19.6,98,100,1.62,BR,1698735898
465,dolores,-36.3132,-57.6792,7.35,70,100,3.82,AR,1698735436
466,natal,-5.795,-35.2094,23.12,88,40,2.06,BR,1698735640
467,port blair,11.6667,92.75,30.02,79,40,3.6,IN,1698735898
468,lichinga,-13.3128,35.2406,22.05,68,75,7.2,MZ,1698735898
469,saint-jean-d'angely,45.95,-0.5167,11.87,89,3,3.92,FR,1698735898
470,ad dabbah,18.05,30.95,32.91,20,28,7.38,SD,1698735898
471,naftalan,40.5067,46.825,18.68,52,68,2.67,AZ,1698735899
472,labytnangi,66.6572,66.4183,-9.3,93,100,2.52,RU,1698735798
473,tanggu,39.0211,117.6469,20.98,51,3,1.17,CN,1698735899
474,tchamba,9.0333,1.4167,23.13,84,100,0.9,TG,1698735899
475,bartica,6.4,-58.6167,26.18,99,89,0.5,GY,1698735899
476,valparaiso,-33.0393,-71.6273,9.8,87,0,1.03,CL,1698735625
477,viana do castelo,41.6932,-8.8329,13.63,89,59,4.53,PT,1698735899
478,hassi messaoud,31.6804,6.0729,18.92,26,0,1.03,DZ,1698735899
479,francisco beltrao,-26.0811,-53.055,18.45,97,100,1.08,BR,1698735885
480,margate,51.3813,1.3862,9.94,95,100,0.45,GB,1698735357
481,chonchi,-42.6128,-73.8092,1.56,97,4,0.55,CL,1698735378
482,richards bay,-28.783,32.0377,15.8,91,100,0.66,ZA,1698735401
483,masterton,-40.9597,175.6575,17.71,94,99,2.76,NZ,1698735379
484,pariaman,-0.619,100.12,28.03,83,77,2.85,ID,1698735899
485,maisi,43.0395,41.2621,21.4,22,0,0.77,GE,1698735899
486,trevelin,-43.0858,-71.4639,1.71,94,97,1.28,AR,1698735900
487,saint-francois,46.4154,3.9054,10.36,82,100,3.09,FR,1698735410
488,uturoa,-16.7333,-151.4333,26.37,80,13,8.83,PF,1698735381
489,quincy,42.2529,-71.0023,7.43,81,75,7.72,US,1698735900
490,sur,22.5667,59.5289,30.14,38,0,2.23,OM,1698735379
491,trinidad,-14.8333,-64.9,22.68,92,99,1.46,BO,1698735900
492,lowicz,52.1071,19.9453,14.18,54,100,8.05,PL,1698735900
493,gazojak,41.1875,61.4036,14.42,49,0,3.74,TM,1698735426
494,xuanzhou,30.9525,118.7553,27.9,30,0,1.5,CN,1698735900
495,kangding,30.0513,101.9603,15.53,59,62,0.84,CN,1698735900
496,baihar,22.1,80.55,30.26,33,1,1.66,IN,1698735900
497,minab,27.1467,57.0801,32.29,37,6,1.6,IR,1698735900
498,bakanas,44.8081,76.2772,10.83,75,100,11.32,KZ,1698735901
499,soledad de doblado,19.05,-96.4167,24.47,83,28,2.21,MX,1698735665
500,corfu,39.62,19.9197,19.88,83,40,3.6,GR,1698735901
501,sovetsk,55.0839,21.8785,10.7,88,93,6.14,RU,1698735901
502,calahorra,42.3051,-1.9652,5.99,73,3,0.85,ES,1698735901
503,makokou,0.5738,12.8642,21.86,97,100,0.72,GA,1698735748
504,nemuro,43.3236,145.575,11.65,82,10,5.32,JP,1698735421
505,ulaangom,49.9811,92.0667,2.83,65,100,1.55,MN,1698735680
506,phatthalung,7.5,100.0833,30.22,67,100,3.65,TH,1698735902
507,altay,47.8667,88.1167,7.26,89,100,2.82,CN,1698735399
508,sadao,6.6388,100.4234,33.64,70,100,3.01,TH,1698735902
509,mazatan,14.8667,-92.45,24.59,87,100,2.07,MX,1698735902
510,tura,25.5198,90.2201,29.06,49,7,1.21,IN,1698735405
511,nantucket,41.2835,-70.0995,9.52,82,100,11.28,US,1698735626
512,boa vista,2.8197,-60.6733,26.99,74,0,2.06,BR,1698735661
513,mersa matruh,31.3525,27.2453,25.11,65,40,4.63,EG,1698735903
514,show low,34.2542,-110.0298,-1.62,39,0,0.45,US,1698735841
515,adirampattinam,10.35,79.4,30.77,61,100,4.95,IN,1698735903
516,pizarro,4.9533,-77.366,24.67,92,100,0.94,CO,1698735903
517,jinghong,21.991,100.7341,26.87,61,100,0.62,CN,1698735903
518,oranjemund,-28.55,16.4333,23.98,40,10,5.72,NA,1698735368
519,dudinka,69.4058,86.1778,-15.21,97,99,0.89,RU,1698735390
520,bosobolo,4.1833,19.9,25.83,83,100,1.41,CD,1698735904
521,kodinsk,58.6881,99.1844,-9.76,38,0,2.67,RU,1698735904
522,bamboo flat,11.7,92.7167,30.05,79,40,3.6,IN,1698735904
523,askoy,60.4092,5.226,1.08,86,0,1.54,NO,1698735904
524,selfoss,63.9331,-20.9971,0.02,76,36,4.16,IS,1698735388
525,cadale,2.7603,46.3222,29.06,67,38,2.71,SO,1698735905
526,zeya,53.75,127.2667,-4.73,41,100,0.78,RU,1698735905
527,peniche,39.3558,-9.3811,14.5,90,100,4.58,PT,1698735905
528,minas de marcona,-15.2119,-75.1103,13.77,87,67,5.87,PE,1698735414
529,nandu,22.8525,110.8233,26.93,56,27,2.82,CN,1698735905
530,usogorsk,63.4106,48.6872,-3.52,83,100,1.41,RU,1698735394
531,norcasia,5.5778,-74.8852,21.05,98,100,0.77,CO,1698735906
532,ballina,-28.8667,153.5667,32.1,51,38,6.56,AU,1698735906
533,onverwacht,5.5833,-55.1833,26.03,97,20,0.0,SR,1698735906
534,brookings,44.3114,-96.7984,-4.97,78,100,11.32,US,1698735906
535,nema,57.5067,50.5011,-1.44,91,100,1.65,RU,1698735906
536,sidi akkacha,36.4647,1.3026,17.16,80,100,1.09,DZ,1698735907
537,sikasso,10.9167,-7.0,24.87,62,19,0.44,ML,1698735907
538,plastun,44.7561,136.2939,12.92,73,29,2.96,RU,1698735907
539,champerico,14.3,-91.9167,25.34,88,100,2.08,GT,1698735372
540,benguela,-12.5763,13.4055,25.52,74,10,1.91,AO,1698735908
541,quellon,-43.1167,-73.6167,2.73,85,3,1.35,CL,1698735908
542,vernon,50.2581,-119.2691,0.72,73,7,2.57,CA,1698735210
543,strathmore,51.0501,-113.3852,0.67,80,95,5.14,CA,1698735909
544,qinggang,46.6833,126.0833,3.48,75,100,5.17,CN,1698735909
545,inda silase,14.1031,38.2829,21.7,52,34,5.38,ET,1698735909
546,zouerate,22.7187,-12.4521,24.42,20,0,2.44,MR,1698735909
547,bairnsdale,-37.8333,147.6167,16.14,56,6,2.68,AU,1698735909
548,porlamar,10.958,-63.8491,27.34,81,68,4.04,VE,1698735910
549,barakani,-12.1356,44.4317,28.15,65,66,1.07,KM,1698735376
550,tshabong,-26.05,22.45,17.75,59,67,8.35,BW,1698735910
551,road town,18.4167,-64.6167,28.05,78,100,7.78,VG,1698735910
552,al majaridah,19.1236,41.9111,30.67,43,11,1.64,SA,1698735910
553,bowen,-20.0167,148.2333,24.36,58,14,5.15,AU,1698735911
554,prokuplje,43.2342,21.5881,12.6,49,71,1.82,RS,1698735911
555,sao jose da coroa grande,-8.8978,-35.1478,23.25,78,78,2.76,BR,1698735911
556,long beach,33.767,-118.1892,22.92,23,0,1.95,US,1698735651
557,kapa'a,22.0752,-159.319,26.18,77,75,3.6,US,1698735378
558,kampene,-3.6,26.6667,25.28,76,100,0.97,CD,1698735912
559,laghouat,33.8,2.8651,17.64,56,100,1.4,DZ,1698735912
560,ashoknagar,24.5667,77.7167,30.42,28,92,3.49,IN,1698735912
561,akureyri,65.6835,-18.0878,-6.04,86,28,2.57,IS,1698735407
562,aoulef,26.9667,1.0833,27.89,17,8,3.5,DZ,1698735913
563,ambodifotatra,-16.9833,49.85,27.03,89,75,1.03,MG,1698735913
564,hotan,37.0997,79.9269,21.7,12,11,2.31,CN,1698735913
565,la palma,33.8464,-118.0467,22.88,16,0,2.24,US,1698735913
566,dalandzadgad,43.5708,104.425,13.62,33,100,9.01,MN,1698735913
567,port macquarie,-31.4333,152.9167,24.38,58,64,6.55,AU,1698735788
568,shizunai-furukawacho,42.3339,142.3669,12.68,71,100,0.86,JP,1698735914
569,wodonga,-36.1167,146.8833,18.48,90,18,4.93,AU,1698735914
570,thoen,17.6129,99.2161,24.91,95,100,0.37,TH,1698735914
571,tabou,4.423,-7.3528,24.73,91,15,1.7,CI,1698735418
572,i-n-salah,27.1935,2.4607,27.1,17,60,3.59,DZ,1698735914
573,calingasta,-31.3308,-69.4078,12.41,27,3,1.04,AR,1698735915
574,yekaterinoslavka,50.3734,129.1139,-1.52,33,100,2.39,RU,1698735915
575,twante,16.7167,95.9333,31.07,63,100,3.48,MM,1698735915
576,ranot,7.7777,100.3213,29.22,72,100,3.72,TH,1698735915
577,rach gia,10.0167,105.0833,30.21,70,100,3.95,VN,1698735915
578,chernomorskoye,45.5039,32.6997,18.08,51,9,4.7,UA,1698735915
579,talcahuano,-36.7167,-73.1167,5.82,87,0,2.57,CL,1698735915
580,kpandae,8.4689,-0.0113,25.71,84,77,1.81,GH,1698735916
581,fort-shevchenko,44.5086,50.263,15.77,60,5,7.49,KZ,1698735916
582,antofagasta,-23.65,-70.4,16.6,69,35,3.4,CL,1698735916
583,andergrove,-21.0833,149.1833,28.69,57,2,4.12,AU,1698735916
584,bandar-e lengeh,26.5579,54.8807,30.06,66,8,5.14,IR,1698735917
585,gaalkacyo,6.7697,47.4308,28.33,61,84,4.4,SO,1698735917
586,kutum,14.2,24.6667,26.85,26,82,8.49,SD,1698735917
587,nuuk,64.1835,-51.7216,10.34,27,100,8.23,GL,1698735375
588,cabeza del buey,38.7223,-5.2195,10.51,73,100,1.21,ES,1698735917
589,alesund,62.4723,6.1549,1.53,68,0,6.69,NO,1698735713
590,maxixe,-23.8597,35.3472,21.9,73,75,4.12,MZ,1698735918
591,kostomuksha,64.571,30.5767,-9.42,98,73,1.79,RU,1698735919
592,alaghsas,17.0187,8.0168,24.94,19,0,3.6,NE,1698735422
593,acajutla,13.5928,-89.8275,24.88,83,100,2.63,SV,1698735663
594,pontal,-21.0225,-48.0372,23.15,92,100,1.42,BR,1698735919
595,palmer,42.1584,-72.3287,6.79,72,100,5.14,US,1698735443
596,neftekumsk,44.6667,44.9167,17.01,67,4,4.22,RU,1698735919
597,necochea,-38.5473,-58.7368,6.73,76,71,1.47,AR,1698735919
598,bouar,5.934,15.596,23.65,75,100,0.8,CF,1698735920
599,gorodishche,48.8045,44.4744,13.49,76,0,7.0,RU,1698735920
600,chadron,42.8294,-102.9999,-7.18,81,0,2.06,US,1698735920
601,al kharijah,25.4514,30.5464,27.33,44,0,4.27,EG,1698735920
602,corlu,41.1592,27.8,17.99,88,75,1.54,TR,1698735920
603,bayramaly,37.6185,62.1671,16.86,40,61,6.13,TM,1698735921
604,tirumala,13.6833,79.35,25.1,66,100,4.25,IN,1698735921
605,horta,38.5333,-28.6333,17.23,90,82,2.24,PT,1698735921
606,bosansko grahovo,44.1794,16.3639,14.8,97,100,6.66,BA,1698735921
